onLoadMarkers(
[
  {
    "lat": 40.4217654,
    "lon": -79.99593829999998,
    "name": "Sweet Peaches",
    "address": "635 E Warrington Ave, Pittsburgh, PA 15210",
    "hood": "Allentown",
    "status": "live"
  },
    {
    "lat": 40.401426,
    "lon": -79.865015,
    "name": "Nyia Page Community Center",
    "address": "416 Library Street",
    "hood": "Braddock",
    "status": "planned"
  },
  {
    "lat": 40.421025,
    "lon": -79.994101,
    "name": "79 Allen st.",
    "address": "79 Allen St., Pittsburgh, PA 15210",
    "hood": "Allentown",
    "status": "live"
  },
  {
    "lat": 40.421535,
    "lon": -79.992927,
    "name": "Amsler's Pharmacy",
    "address": "818 E Warrington Ave, Pittsburgh, PA 15210",
    "hood": "Allentown",
    "status": "live"
  },
  {
    "lat": 40.42162363944305,
    "lon": -79.99721378087997,
    "name": "604 E Warrington Ave, Allentown",
    "address": "604 E Warrington Ave, Pittsburgh, PA 15210",
    "hood": "Allentown",
    "status": "planned"
  },
  {
    "lat": 40.42178246558993,
    "lon": -79.99411851167679,
    "name": "The Hardware Store",
    "address": "744 E Warrington Ave, Pittsburgh, PA 15210",
    "hood": "Allentown",
    "status": "live"
  },
  {
    "lat": 40.421432,
    "lon": -79.994153,
    "name": "The Hardware Store (rear)",
    "address": "745 Manton Way, Pittsburgh, PA 15210",
    "hood": "Allentown",
    "status": "live"
  },
  {
    "lat": 40.42146770067946,
    "lon": -79.99228522181511,
    "name": "1210 Arlington Ave, Allentown",
    "address": "1210 Arlington Ave, Pittsburgh, PA 15210",
    "hood": "Allentown",
    "status": "live"
  },
  {
    "lat": 40.417765492763436,
    "lon": -79.98515456914902,
    "name": "1733 Arlington Ave, South Side Slopes",
    "address": "1733 Arlington Ave, Pittsburgh, PA 15210",
    "hood": "South Side Slopes",
    "status": "live"
  },
  {
    "lat": 40.431743003452226,
    "lon": -79.95693370699883,
    "name": "3442 Frazier St, South Oakland",
    "address": "3442 Frazier St, Pittsburgh, PA 15213",
    "hood": "South Oakland",
    "status": "live"
  },
  {
    "lat": 40.437934569892626,
    "lon": -79.9780909717083,
    "name": "Hack Pittsburgh",
    "address": "1936 5th Avenue, Pittsburgh, PA 15219",
    "hood": "Uptown",
    "status": "live"
  },
  {
    "lat": 40.4359199,
    "lon": -79.9818112,
    "name": "StartUptown at The Paramount Film Exchange",
    "address": "544 Miltenberger St., Pittsburgh, PA 15219",
    "hood": "Uptown",
    "status": "live"
  },
  {
    "lat": 40.421108,
    "lon": -79.992794,
    "name": "RE360",
    "address": "829 Industry Street, Pittsburgh, PA 15210",
    "hood": "Allentown",
    "status": "live"
  },
  {
    "lat": 40.421773,
    "lon": -79.995162,
    "name": "Anonymous Node Host",
    "address": "",
    "hood": "Allentown",
    "status": "live"
  },
  {
    "lat": 40.422169,
    "lon": -79.993279,
    "name": "Caliguiri Building",
    "address": "803 East Warrington Avenue, Pittsburgh, PA 15210",
    "hood": "Allentown",
    "status": "live"
  },
  {
    "lat": 40.421878,
    "lon": -79.994377,
    "name": "Primo Cutz",
    "address": "741 E Warrington Ave, Pittsburgh, PA 15210",
    "hood": "Allentown",
    "status": "live"
  },
  {
    "lat": 40.427044,
    "lon": -79.982186,
    "name": "17th and Jane",
    "address": "17th and Jane",
    "hood": "South Side",
    "status": "live"
  },
  {
    "lat": 40.395048,
    "lon": -80.021332,
    "name": "631 Brookline Blvd.",
    "address": "631 Brookline Blvd., Pittsburgh, PA 15226",
    "hood": "Brookline",
    "status": "live"
  },
    {
    "lat": 40.404438,
    "lon": -79.870165,
    "name": "Brew Gentlemen Brewery",
    "address": "512 Braddock Ave, Braddock, PA 15104",
    "hood": "Braddock",
    "status": "live"
  },
    {
    "lat": 40.394291,
    "lon": -80.008284,
    "name": "1415 Milan Ave",
    "address": "1415 Milan Ave, Brookline, 15226",
    "hood": "Brookline",
    "status": "live"
  },
    {
    "lat": 40.394356,
    "lon": -80.004999,
    "name": "1517 Milan Ave",
    "address": "1517 Milan Ave, Brookline, 15226",
    "hood": "Brookline",
    "status": "live"
  },
    {
    "lat": 40.404736,
    "lon": -79.870861,
    "name": "The Free Store",
    "address": "401-465 Braddock Ave",
    "hood": "Braddock",
    "status": "live"
  },
    {
    "lat": 40.418099,
    "lon":  -79.996358,
    "name": "Orchard House",
    "address": "412 Orchard Place",
    "hood": "Allentown",
    "status": "planned"
  },
    {
    "lat": 40.428918,
    "lon":  -79.984250,
    "name": "Beehive Coffeehouse",
    "address": "1327 East Carson Ave",
    "hood": "South Side",
    "status": "planned"
  },
   {
    "lat": 40.480279,
    "lon":  -80.011995,
    "name": "Perrysville Ave",
    "address": "3308 Perrysville Ave",
    "hood": "Perry North",
    "status": "planned"
  },
    {
    "lat": 40.423068,
    "lon":  -79.998515,
    "name": "anonymous",
    "address": "Winton St. and Craighead St",
    "hood": "Allentown",
    "status": "live"
  },
      {
    "lat": 40.483098, 
    "lon":  -80.016651,
    "name": "Riverview Park site A",
    "address": "57 Riverview Ave. ",
    "hood": "Perry North",
    "status": "live"
  }
]
);
