onLoadMarkers(
[
  {
    "lat": 40.4217654,
    "lon": -79.99593829999998,
    "name": "Sweet Peaches",
    "address": "635 E Warrington Ave, Pittsburgh, PA 15210",
    "hood": "Allentown",
    "status": "live"
  },
  {
    "lat": 40.421025,
    "lon": -79.994101,
    "name": "79 Allen st.",
    "address": "79 Allen St., Pittsburgh, PA 15210",
    "hood": "Allentown",
    "status": "live"
  },
  {
    "lat": 40.421535,
    "lon": -79.992927,
    "name": "Amsler's Pharmacy",
    "address": "818 E Warrington Ave, Pittsburgh, PA 15210",
    "hood": "Allentown",
    "status": "live"
  },
  {
    "lat": 40.42183588884596,
    "lon": -79.9955601990223,
    "name": "701 E Warrington Ave, Allentown",
    "address": "701 E Warrington Ave, Pittsburgh, PA 15210",
    "hood": "Allentown",
    "status": "planned"
  },
  {
    "lat": 40.42162363944305,
    "lon": -79.99721378087997,
    "name": "604 E Warrington Ave, Allentown",
    "address": "604 E Warrington Ave, Pittsburgh, PA 15210",
    "hood": "Allentown",
    "status": "planned"
  },
  {
    "lat": 40.42178246558993,
    "lon": -79.99411851167679,
    "name": "The Hardware Store",
    "address": "744 E Warrington Ave, Pittsburgh, PA 15210",
    "hood": "Allentown",
    "status": "live"
  },
  {
    "lat": 40.421432,
    "lon": -79.994153,
    "name": "The Hardware Store (rear)",
    "address": "745 Manton Way, Pittsburgh, PA 15210",
    "hood": "Allentown",
    "status": "live"
  },
  {
    "lat": 40.42146770067946,
    "lon": -79.99228522181511,
    "name": "1210 Arlington Ave, Allentown",
    "address": "1210 Arlington Ave, Pittsburgh, PA 15210",
    "hood": "Allentown",
    "status": "planned"
  },
  {
    "lat": 40.417765492763436,
    "lon": -79.98515456914902,
    "name": "1733 Arlington Ave, South Side Slopes",
    "address": "1733 Arlington Ave, Pittsburgh, PA 15210",
    "hood": "South Side Slopes",
    "status": "live"
  },
  {
    "lat": 40.431743003452226,
    "lon": -79.95693370699883,
    "name": "3442 Frazier St, South Oakland",
    "address": "3442 Frazier St, Pittsburgh, PA 15213",
    "hood": "South Oakland",
    "status": "live"
  },
  {
    "lat": 40.437934569892626,
    "lon": -79.9780909717083,
    "name": "Hack Pittsburgh",
    "address": "1936 5th Avenue, Pittsburgh, PA 15219",
    "hood": "Uptown",
    "status": "live"
  },
  {
    "lat": 40.4359199,
    "lon": -79.9818112,
    "name": "StartUptown at The Paramount Film Exchange",
    "address": "544 Miltenberger St., Pittsburgh, PA 15219",
    "hood": "Uptown",
    "status": "live"
  },
  {
    "lat": 40.421108,
    "lon": -79.992794,
    "name": "RE360",
    "address": "829 Industry Street, Pittsburgh, PA 15210",
    "hood": "Allentown",
    "status": "live"
  },
  {
    "lat": 40.421773,
    "lon": -79.995162,
    "name": "Anonymous Node Host",
    "address": "",
    "hood": "Allentown",
    "status": "live"
  },
  {
    "lat": 40.422169,
    "lon": -79.993279,
    "name": "Caliguiri Building",
    "address": "803 East Warrington Avenue, Pittsburgh, PA 15210",
    "hood": "Allentown",
    "status": "live"
  },
  {
    "lat": 40.427044,
    "lon": -79.982186,
    "name": "Anonymous Node Host",
    "address": "",
    "hood": "South Side",
    "status": "live"
  },
  {
    "lat": 40.395048,
    "lon": -80.021332,
    "name": "631 Brookline Blvd.",
    "address": "631 Brookline Blvd., Pittsburgh, PA 15226",
    "hood": "Brookline",
    "status": "live"
  },
    {
    "lat": 40.404438,
    "lon": -79.870165,
    "name": "Brew Gentlemen Brewery",
    "address": "512 Braddock Ave, Braddock, PA 15104",
    "hood": "Braddock",
    "status": "live"
  }
]
);
