onLoadMarkers(
[
  {
    "lat": 40.4217654,
    "lon": -79.99593829999998,
    "name": "Sweet Peaches",
    "address": "635 E Warrington Ave, Pittsburgh, PA 15210",
    "hood": "Allentown",
    "status": "live"
  },
  {
    "lat": 40.401426,
    "lon": -79.865015,
    "name": "Nyia Page Community Center",
    "address": "416 Library Street, Braddock, PA 15104",
    "hood": "Braddock",
    "status": "planned"
  },
  {
    "lat": 40.479296,
    "lon": -79.974409,
    "name": "Deco Resources",
    "address": "10 Sedgwick St, Millvale, PA 15209",
    "hood": "Millvale",
    "status": "live"
  },
    {
    "lat": 40.398575,
    "lon": -79.862365,
    "name": "United Steelworkers Building",
    "address": "1070 Braddock Ave, Braddock, PA 15104",
    "hood": "Braddock",
    "status": "live"
  },
  {
    "lat": 40.479371,
    "lon": -79.973557,
    "name": "Millvale Garden Repeater",
    "address": "15 Buttler Street, Millvale, PA 15209",
    "hood": "Millvale",
    "status": "live"
  },
  {
    "lat": 40.479018,
    "lon":  -79.973155,
    "name": "Millvale Gardens FishCam Repeater",
    "address": "3 Hays Street, Millvale, PA 15209",
    "hood": "Millvale",
    "status": "live"
  },
  {
    "lat": 40.421549,
    "lon": -79.992598,
    "name": "826 East Warrington Ave",
    "address": "826 East Warrington Ave, Pittsburgh, PA 15210",
    "hood": "Allentown",
    "status": "live"
  },
  {
    "lat": 40.403990,
    "lon":  -79.869722,
    "name": "Free Press Building",
    "address": "528 Braddock Ave, Braddock, PA 15104",
    "hood": "Braddock",
    "status": "live"
  },
  {
    "lat": 40.397978,
    "lon": -79.861993,
    "name": "Braddock Fire Station 113",
    "address": "1100 Braddock Ave., Braddock, PA 15104",
    "hood": "Braddock",
    "status": "live"
  },
  {
    "lat": 40.397860,
    "lon": -79.861006,
    "name": "UnSmoke Systems Artspace",
    "address": "1137 Braddock Ave., Braddock, PA 15104",
    "hood": "Braddock",
    "status": "live"
  },
  {
    "lat": 40.399016,
    "lon": -79.862898,
    "name": "Braddock Farms",
    "address": "1008 Braddock Ave., Braddock, PA 15104",
    "hood": "Braddock",
    "status": "planned"
  },
  {
    "lat": 40.400585,
    "lon": -79.864731,
    "name": "Braddock Employment Training Center",
    "address": "1008 Braddock Ave., Braddock, PA 15104",
    "hood": "Braddock",
    "status": "planned"
  },
  {
    "lat": 40.401272,
    "lon": -79.864968,
    "name": "Braddock Redux",
    "address": "1008 Braddock Ave., Braddock, PA 15104",
    "hood": "Braddock",
    "status": "planned"
  },
  {
    "lat": 40.403251,
    "lon": -79.868306,
    "name": "Bell's Market",
    "address": "603 Braddock Ave., Braddock, PA 15104",
    "hood": "Braddock",
    "status": "planned"
  },
  {
    "lat": 40.403924,
    "lon": -79.869629,
    "name": "Hocky Brothers Auto Parts",
    "address": "110 Braddock Ave., Braddock, PA 15104",
    "hood": "Braddock",
    "status": "planned"
  },
  {
    "lat": 40.406155,
    "lon": -79.873747,
    "name": "Studebaker Metals",
    "address": "534 Braddock Ave., Braddock, PA 15104",
    "hood": "Braddock",
    "status": "planned"
  },
  {
    "lat": 40.398129,
    "lon": -79.859311,
    "name": "Anonymous Node Host",
    "address": "37 Wood Street, Braddock, PA 15104",
    "hood": "Braddock",
    "status": "live"
  },
  {
    "lat": 40.405658,
    "lon": -79.872762,
    "name": "Ink Division",
    "address": "218 Braddock Ave., Braddock, PA 15104",
    "hood": "Braddock",
    "status": "live"
  },
  {
    "lat": 40.403562,
    "lon": -79.869099,
    "name": "Stamboli's Poultry Market",
    "address": "550 Braddock Ave., Braddock, PA 15104",
    "hood": "Braddock",
    "status": "planned"
  },
  {
    "lat": 40.421025,
    "lon": -79.994101,
    "name": "79 Allen st.",
    "address": "79 Allen St., Pittsburgh, PA 15210",
    "hood": "Allentown",
    "status": "live"
  },
  {
    "lat": 40.421535,
    "lon": -79.992927,
    "name": "Amsler's Pharmacy",
    "address": "818 E Warrington Ave, Pittsburgh, PA 15210",
    "hood": "Allentown",
    "status": "live"
  },
  {
    "lat": 40.416665,
    "lon": -79.986348,
    "name": "125 Locust Street, Mt Oliver, PA 15210",
    "address": "125 Locust Street, Mt Oliver, PA 15210",
    "hood": "Mt. Oliver",
    "status": "live"
  },
  {
    "lat": 40.416747,
    "lon":  -79.986724,
    "name": "127 Brownsville Rd., Mt Oliver, PA 15210",
    "address": "127 Brownsville Rd., Mt Oliver, PA 15210",
    "hood": "Mt. Oliver",
    "status": "live"
  },
  {
    "lat": 40.42162363944305,
    "lon": -79.99721378087997,
    "name": "604 Beltzhoover Ave, Allentown",
    "address": "604 E Warrington Ave, Pittsburgh, PA 15210",
    "hood": "Allentown",
    "status": "live"
  },
  {
    "lat": 40.42178246558993,
    "lon": -79.99411851167679,
    "name": "The Hardware Store",
    "address": "744 E Warrington Ave, Pittsburgh, PA 15210",
    "hood": "Allentown",
    "status": "live"
  },
  {
    "lat": 40.42146770067946,
    "lon": -79.99228522181511,
    "name": "1210 Arlington Ave, Allentown",
    "address": "1210 Arlington Ave, Pittsburgh, PA 15210",
    "hood": "Allentown",
    "status": "live"
  },
  {
    "lat": 40.417765492763436,
    "lon": -79.98515456914902,
    "name": "1733 Arlington Ave, South Side Slopes",
    "address": "1733 Arlington Ave, Pittsburgh, PA 15210",
    "hood": "South Side Slopes",
    "status": "live"
  },
  {
    "lat": 40.431743003452226,
    "lon": -79.95693370699883,
    "name": "3442 Frazier St, South Oakland",
    "address": "3442 Frazier St, Pittsburgh, PA 15213",
    "hood": "South Oakland",
    "status": "live"
  },
  {
    "lat": 40.437934569892626,
    "lon": -79.9780909717083,
    "name": "Hack Pittsburgh",
    "address": "1936 5th Avenue, Pittsburgh, PA 15219",
    "hood": "Uptown",
    "status": "live"
  },
  {
    "lat": 40.4359199,
    "lon": -79.9818112,
    "name": "StartUptown at The Paramount Film Exchange",
    "address": "544 Miltenberger St., Pittsburgh, PA 15219",
    "hood": "Uptown",
    "status": "live"
  },
  {
    "lat": 40.421108,
    "lon": -79.992794,
    "name": "RE360",
    "address": "829 Industry Street, Pittsburgh, PA 15210",
    "hood": "Allentown",
    "status": "live"
  },
  {
    "lat": 40.421773,
    "lon": -79.995162,
    "name": "Anonymous Node Host",
    "address": "",
    "hood": "Allentown",
    "status": "live"
  },
  {
    "lat": 40.422169,
    "lon": -79.993279,
    "name": "Caliguiri Building",
    "address": "803 East Warrington Avenue, Pittsburgh, PA 15210",
    "hood": "Allentown",
    "status": "live"
  },
  {
    "lat": 40.421878,
    "lon": -79.994377,
    "name": "Primo Cutz",
    "address": "741 E Warrington Ave, Pittsburgh, PA 15210",
    "hood": "Allentown",
    "status": "live"
  },
  {
    "lat": 40.427044,
    "lon": -79.982186,
    "name": "17th and Jane",
    "address": "17th and Jane",
    "hood": "South Side",
    "status": "live"
  },
  {
    "lat": 40.395048,
    "lon": -80.021332,
    "name": "631 Brookline Blvd.",
    "address": "631 Brookline Blvd., Pittsburgh, PA 15226",
    "hood": "Brookline",
    "status": "live"
  },
  {
    "lat": 40.404438,
    "lon": -79.870165,
    "name": "Brew Gentlemen Brewery",
    "address": "512 Braddock Ave, Braddock, PA 15104",
    "hood": "Braddock",
    "status": "live"
  },
  {
    "lat": 40.394291,
    "lon": -80.008284,
    "name": "1415 Milan Ave",
    "address": "1415 Milan Ave, Brookline, 15226",
    "hood": "Brookline",
    "status": "live"
  },
  {
    "lat": 40.394356,
    "lon": -80.004999,
    "name": "1517 Milan Ave",
    "address": "1517 Milan Ave, Brookline, 15226",
    "hood": "Brookline",
    "status": "live"
  },
  {
    "lat": 40.404736,
    "lon": -79.870861,
    "name": "The Free Store",
    "address": "401-465 Braddock Ave",
    "hood": "Braddock",
    "status": "live"
  },
  {
    "lat": 40.418099,
    "lon":  -79.996358,
    "name": "241 Orchard Place",
    "address": "241 Orchard Place",
    "hood": "Allentown",
    "status": "live"
  },
  {
    "lat": 40.428918,
    "lon":  -79.984250,
    "name": "Beehive Coffeehouse",
    "address": "1327 East Carson Ave",
    "hood": "South Side",
    "status": "live"
  },
  {
    "lat": 40.480279,
    "lon":  -80.011995,
    "name": "Perrysville Ave",
    "address": "3308 Perrysville Ave",
    "hood": "Perry North",
    "status": "planned"
  },
  {
    "lat": 40.423068,
    "lon":  -79.998515,
    "name": "Winton St. and Craighead St",
    "address": "Winton St. and Craighead St",
    "hood": "Allentown",
    "status": "live"
  },
  {
    "lat": 40.427916,
    "lon":  -79.972932,
    "name": "97 South 23rd Street",
    "address": "97 South 23rd Street",
    "hood": "South Side",
    "status": "live"
  },
  {
    "lat": 40.445342,
    "lon":  -79.976336,
    "name": "Hill District Node 1",
    "address": "",
    "hood": "Hill District",
    "status": "planned"
  },
  {
    "lat": 40.445871,
    "lon":  -79.976933,
    "name": "Hill District Node 2",
    "address": "",
    "hood": "Hill District",
    "status": "planned"
  },
  {
    "lat": 40.445091,
    "lon":  -79.976890,
    "name": "Hill District Node 3",
    "address": "",
    "hood": "Hill District",
    "status": "planned"
  },
  {
    "lat": 40.444173,
    "lon":  -79.976466,
    "name": "Hill District Node 4",
    "address": "",
    "hood": "Hill District",
    "status": "planned"
  },
  {
    "lat": 40.444996,
    "lon":  -79.977569,
    "name": "Hill District Node 5",
    "address": "",
    "hood": "Hill District",
    "status": "planned"
  },
  {
    "lat": 40.445421,
    "lon":  -79.978148,
    "name": "Hill District Node 6",
    "address": "",
    "hood": "Hill District",
    "status": "planned"
  },
  {
    "lat": 40.444784,
    "lon":  -79.978116,
    "name": "Hill District Node 7",
    "address": "",
    "hood": "Hill District",
    "status": "planned"
  },
  {
    "lat": 40.443625,
    "lon":  -79.977848,
    "name": "Hill District Node 8",
    "address": "",
    "hood": "Hill District",
    "status": "planned"
  },
  {
    "lat": 40.444360,
    "lon":  -79.978803,
    "name": "Hill District Node 9",
    "address": "",
    "hood": "Hill District",
    "status": "planned"
  },
  {
    "lat": 40.444768,
    "lon":  -79.979618,
    "name": "Hill District Node 10",
    "address": "",
    "hood": "Hill District",
    "status": "planned"
  },
  {
    "lat": 40.443992,
    "lon":  -79.979479,
    "name": "Hill District Node 11",
    "address": "",
    "hood": "Hill District",
    "status": "planned"
  },
  {
    "lat": 40.442988,
    "lon":  -79.979243,
    "name": "Hill District Node 12",
    "address": "",
    "hood": "Hill District",
    "status": "planned"
  },
  {
    "lat": 40.443649,
    "lon":  -79.980412,
    "name": "Hill District Node 13",
    "address": "",
    "hood": "Hill District",
    "status": "planned"
  },
  {
    "lat": 40.444049,
    "lon":  -79.981206,
    "name": "Hill District Node 14",
    "address": "",
    "hood": "Hill District",
    "status": "planned"
  },
  {
    "lat": 40.443143,
    "lon":  -79.981356,
    "name": "Hill District Node 15",
    "address": "",
    "hood": "Hill District",
    "status": "planned"
  },
  {
    "lat": 40.442196,
    "lon":  -79.980959,
    "name": "Hill District Node 16",
    "address": "",
    "hood": "Hill District",
    "status": "planned"
  },
  {
    "lat": 40.443421,
    "lon":  -79.982268,
    "name": "Hill District Node 17",
    "address": "",
    "hood": "Hill District",
    "status": "planned"
  },
  {
    "lat": 40.442604,
    "lon":  -79.982515,
    "name": "Hill District Node 18",
    "address": "",
    "hood": "Hill District",
    "status": "planned"
  },
  {
    "lat": 40.441836,
    "lon": -79.981968,
    "name": "Hill District Node 19",
    "address": "",
    "hood": "Hill District",
    "status": "planned"
  },
  {
    "lat": 40.444555,
    "lon":  -79.975777,
    "name": "Hill District Node 20",
    "address": "",
    "hood": "Hill District",
    "status": "planned"
  },
  
  {
    "lat": 40.483098, 
    "lon":  -80.016651,
    "name": "Riverview Park site A",
    "address": "57 Riverview Ave. ",
    "hood": "Perry North",
    "status": "live"
  }
]
);
